{
  "bbox": {
    "south": 47.033758500000005,
    "west": 15.253173,
    "north": 47.694865,
    "east": 17.16058
  },
  "poiCount": 6,
  "leafCount": 6,
  "averagePosition": [
    16.226497,
    47.31184453333333
  ],
  "data": [
    {
      "type": "Feature",
      "properties": {
        "id": "242810686",
        "osm_type": "node",
        "lat": 47.0699167,
        "lon": 15.4961983,
        "created_by": "Potlatch 0.10b",
        "name": "Lustbühel",
        "tourism": "zoo"
      },
      "geometry": {
        "type": "Point",
        "coordinates": [
          15.4961983,
          47.0699167
        ]
      }
    },
    {
      "type": "Feature",
      "properties": {
        "id": "7650197933",
        "osm_type": "node",
        "lat": 47.2175436,
        "lon": 15.8140455,
        "tourism": "zoo",
        "zoo": "petting_zoo"
      },
      "geometry": {
        "type": "Point",
        "coordinates": [
          15.8140455,
          47.2175436
        ]
      }
    },
    {
      "type": "Feature",
      "properties": {
        "id": "3138928725",
        "osm_type": "node",
        "lat": 47.2356628,
        "lon": 16.506729,
        "name": "Háziállatok",
        "tourism": "zoo"
      },
      "geometry": {
        "type": "Point",
        "coordinates": [
          16.506729,
          47.2356628
        ]
      }
    },
    {
      "type": "Feature",
      "properties": {
        "id": "1785292469",
        "osm_type": "node",
        "lat": 47.414512,
        "lon": 15.9725026,
        "tourism": "zoo"
      },
      "geometry": {
        "type": "Point",
        "coordinates": [
          15.9725026,
          47.414512
        ]
      }
    },
    {
      "type": "Feature",
      "properties": {
        "id": "3524151240",
        "osm_type": "node",
        "lat": 47.4012768,
        "lon": 16.4828064,
        "name": "Kisállatok",
        "tourism": "zoo"
      },
      "geometry": {
        "type": "Point",
        "coordinates": [
          16.4828064,
          47.4012768
        ]
      }
    },
    {
      "type": "Feature",
      "properties": {
        "id": "5076767017",
        "osm_type": "node",
        "lat": 47.5321553,
        "lon": 17.0867002,
        "addr:city": "Kisfalud",
        "addr:housenumber": "97",
        "addr:postcode": "9341",
        "addr:street": "Kossuth Lajos utca",
        "name": "Kisfaludi vadaspark - ZOO Kisfalud",
        "opening_hours": "Sa, Su 10:00-20:00",
        "tourism": "zoo"
      },
      "geometry": {
        "type": "Point",
        "coordinates": [
          17.0867002,
          47.5321553
        ]
      }
    }
  ],
  "children": []
}