{
  "bbox": {
    "south": 46.372652,
    "west": 9.530952,
    "north": 47.033758500000005,
    "east": 11.438358999999998
  },
  "poiCount": 19,
  "leafCount": 19,
  "averagePosition": [
    10.83494135263158,
    46.603911973684205
  ],
  "data": [
    {
      "type": "Feature",
      "properties": {
        "id": "26032383",
        "osm_type": "node",
        "lat": 46.8065596,
        "lon": 9.8381801,
        "name": "Davos Dorf",
        "place": "suburb"
      },
      "geometry": {
        "type": "Point",
        "coordinates": [
          9.8381801,
          46.8065596
        ]
      }
    },
    {
      "type": "Feature",
      "properties": {
        "id": "240072917",
        "osm_type": "node",
        "lat": 46.7933845,
        "lon": 9.8206999,
        "name": "Davos Platz",
        "openGeoDB:loc_id": "31062",
        "place": "suburb",
        "postal_code": "7270",
        "wikidata": "Q5242107"
      },
      "geometry": {
        "type": "Point",
        "coordinates": [
          9.8206999,
          46.7933845
        ]
      }
    },
    {
      "type": "Feature",
      "properties": {
        "id": "240119460",
        "osm_type": "node",
        "lat": 46.8682882,
        "lon": 9.8821599,
        "ele": "1191",
        "name": "Klosters Platz",
        "place": "suburb",
        "postal_code": "7250",
        "website": "https://www.klosters-serneus.ch/"
      },
      "geometry": {
        "type": "Point",
        "coordinates": [
          9.8821599,
          46.8682882
        ]
      }
    },
    {
      "type": "Feature",
      "properties": {
        "id": "760284150",
        "osm_type": "node",
        "lat": 46.8609392,
        "lon": 9.8850465,
        "name": "Selfranga",
        "place": "suburb",
        "wikidata": "Q1786859",
        "wikipedia": "de:Selfranga"
      },
      "geometry": {
        "type": "Point",
        "coordinates": [
          9.8850465,
          46.8609392
        ]
      }
    },
    {
      "type": "Feature",
      "properties": {
        "id": "9795772499",
        "osm_type": "node",
        "lat": 46.8712369,
        "lon": 9.5354146,
        "name": "Masans",
        "place": "suburb",
        "wikidata": "Q1679814",
        "wikipedia": "de:Masans"
      },
      "geometry": {
        "type": "Point",
        "coordinates": [
          9.5354146,
          46.8712369
        ]
      }
    },
    {
      "type": "Feature",
      "properties": {
        "id": "9935735584",
        "osm_type": "node",
        "lat": 46.4893548,
        "lon": 9.8349515,
        "name": "Sankt Moritz Bad",
        "place": "suburb"
      },
      "geometry": {
        "type": "Point",
        "coordinates": [
          9.8349515,
          46.4893548
        ]
      }
    },
    {
      "type": "Feature",
      "properties": {
        "id": "256912559",
        "osm_type": "node",
        "lat": 46.6688778,
        "lon": 11.1739173,
        "name": "Obermais - Maia Alta",
        "name:de": "Obermais",
        "name:it": "Maia Alta",
        "place": "suburb",
        "population": "5422",
        "population:date": "2018-01-01",
        "wikidata": "Q16924341",
        "wikipedia": "it:Maia Alta"
      },
      "geometry": {
        "type": "Point",
        "coordinates": [
          11.1739173,
          46.6688778
        ]
      }
    },
    {
      "type": "Feature",
      "properties": {
        "id": "1425037492",
        "osm_type": "node",
        "lat": 46.664808,
        "lon": 11.1612583,
        "name": "Untermais - Maia Bassa",
        "name:de": "Untermais",
        "name:it": "Maia Bassa",
        "place": "suburb",
        "population": "7115",
        "population:date": "2018-01-01",
        "wikidata": "Q15852164",
        "wikipedia": "it:Maia Bassa"
      },
      "geometry": {
        "type": "Point",
        "coordinates": [
          11.1612583,
          46.664808
        ]
      }
    },
    {
      "type": "Feature",
      "properties": {
        "id": "1657340132",
        "osm_type": "node",
        "lat": 46.4966563,
        "lon": 11.3682625,
        "name": "Piani di Bolzano - Bozner Boden",
        "name:de": "Bozner Boden",
        "name:it": "Piani di Bolzano",
        "place": "suburb",
        "wikidata": "Q111025916",
        "wikipedia": "de:Bozner Boden"
      },
      "geometry": {
        "type": "Point",
        "coordinates": [
          11.3682625,
          46.4966563
        ]
      }
    },
    {
      "type": "Feature",
      "properties": {
        "id": "1657344527",
        "osm_type": "node",
        "lat": 46.4849438,
        "lon": 11.3493021,
        "name": "Aslago - Haslach",
        "name:de": "Haslach",
        "name:it": "Aslago",
        "place": "suburb"
      },
      "geometry": {
        "type": "Point",
        "coordinates": [
          11.3493021,
          46.4849438
        ]
      }
    },
    {
      "type": "Feature",
      "properties": {
        "id": "1831735267",
        "osm_type": "node",
        "lat": 46.5002102,
        "lon": 11.3095054,
        "name": "Moritzing - San Maurizio",
        "name:de": "Moritzing",
        "name:it": "San Maurizio",
        "place": "suburb"
      },
      "geometry": {
        "type": "Point",
        "coordinates": [
          11.3095054,
          46.5002102
        ]
      }
    },
    {
      "type": "Feature",
      "properties": {
        "id": "1878042684",
        "osm_type": "node",
        "lat": 46.5031904,
        "lon": 11.3343419,
        "name": "Gries",
        "name:de": "Gries",
        "name:it": "Gries",
        "place": "suburb",
        "wikidata": "Q1546471",
        "wikipedia": "it:Gries-San Quirino"
      },
      "geometry": {
        "type": "Point",
        "coordinates": [
          11.3343419,
          46.5031904
        ]
      }
    },
    {
      "type": "Feature",
      "properties": {
        "id": "2508795621",
        "osm_type": "node",
        "lat": 46.4917727,
        "lon": 11.336485,
        "name": "Europa-Novacella - Europa-Neustift",
        "name:de": "Europa-Neustift",
        "name:it": "Europa-Novacella",
        "place": "suburb",
        "wikidata": "Q1375167",
        "wikipedia": "it:Europa-Novacella"
      },
      "geometry": {
        "type": "Point",
        "coordinates": [
          11.336485,
          46.4917727
        ]
      }
    },
    {
      "type": "Feature",
      "properties": {
        "id": "2508795627",
        "osm_type": "node",
        "lat": 46.4975578,
        "lon": 11.344256,
        "name": "San Quirino - Quirein",
        "name:de": "Quirein",
        "name:it": "San Quirino",
        "place": "suburb",
        "wikidata": "Q1546471",
        "wikipedia": "it:Gries-San Quirino"
      },
      "geometry": {
        "type": "Point",
        "coordinates": [
          11.344256,
          46.4975578
        ]
      }
    },
    {
      "type": "Feature",
      "properties": {
        "id": "2508795633",
        "osm_type": "node",
        "lat": 46.488916,
        "lon": 11.3245261,
        "alt_name:de": "Neugries",
        "alt_name:it": "San Giovanni Bosco",
        "name": "Don Bosco",
        "name:de": "Don Bosco",
        "name:it": "Don Bosco",
        "place": "suburb",
        "wikidata": "Q241700",
        "wikipedia": "it:Don Bosco (Bolzano)"
      },
      "geometry": {
        "type": "Point",
        "coordinates": [
          11.3245261,
          46.488916
        ]
      }
    },
    {
      "type": "Feature",
      "properties": {
        "id": "9088101968",
        "osm_type": "node",
        "lat": 46.4996726,
        "lon": 11.3553737,
        "name": "Centro Storico - Altstadt",
        "name:de": "Altstadt",
        "name:it": "Centro Storico",
        "place": "suburb"
      },
      "geometry": {
        "type": "Point",
        "coordinates": [
          11.3553737,
          46.4996726
        ]
      }
    },
    {
      "type": "Feature",
      "properties": {
        "id": "9088449826",
        "osm_type": "node",
        "lat": 46.4784764,
        "lon": 11.3290395,
        "name": "Oltrisarco - Oberau",
        "name:de": "Oberau",
        "name:it": "Oltrisarco",
        "old_name": "Grutz",
        "place": "suburb"
      },
      "geometry": {
        "type": "Point",
        "coordinates": [
          11.3290395,
          46.4784764
        ]
      }
    },
    {
      "type": "Feature",
      "properties": {
        "id": "10556926711",
        "osm_type": "node",
        "lat": 46.5020397,
        "lon": 11.3362576,
        "old_name": "Hof",
        "place": "suburb"
      },
      "geometry": {
        "type": "Point",
        "coordinates": [
          11.3362576,
          46.5020397
        ]
      }
    },
    {
      "type": "Feature",
      "properties": {
        "id": "10556926712",
        "osm_type": "node",
        "lat": 46.5074426,
        "lon": 11.3449078,
        "old_name": "Fagen",
        "place": "suburb"
      },
      "geometry": {
        "type": "Point",
        "coordinates": [
          11.3449078,
          46.5074426
        ]
      }
    }
  ],
  "children": []
}