{
  "bbox": {
    "south": 47.694865,
    "west": 13.345766,
    "north": 48.355971499999995,
    "east": 15.253173
  },
  "poiCount": 67,
  "leafCount": 0,
  "averagePosition": [
    14.339564682089552,
    48.1447252835821
  ],
  "data": [],
  "children": [
    {
      "bbox": {
        "south": 47.694865,
        "west": 13.345766,
        "north": 48.02541825,
        "east": 14.2994695
      },
      "poiCount": 3,
      "leafCount": 3,
      "averagePosition": [
        13.714402166666668,
        47.84898556666667
      ],
      "data": [
        {
          "type": "Feature",
          "properties": {
            "id": "240069899",
            "osm_type": "node",
            "lat": 47.7154066,
            "lon": 13.5276087,
            "name": "Aigen",
            "place": "suburb",
            "population": "782"
          },
          "geometry": {
            "type": "Point",
            "coordinates": [
              13.5276087,
              47.7154066
            ]
          }
        },
        {
          "type": "Feature",
          "properties": {
            "id": "2373908973",
            "osm_type": "node",
            "lat": 47.8544045,
            "lon": 13.7807828,
            "name": "Winkl",
            "place": "suburb"
          },
          "geometry": {
            "type": "Point",
            "coordinates": [
              13.7807828,
              47.8544045
            ]
          }
        },
        {
          "type": "Feature",
          "properties": {
            "id": "9218872537",
            "osm_type": "node",
            "lat": 47.9771456,
            "lon": 13.834815,
            "name": "Thal",
            "place": "suburb"
          },
          "geometry": {
            "type": "Point",
            "coordinates": [
              13.834815,
              47.9771456
            ]
          }
        }
      ],
      "children": []
    },
    {
      "bbox": {
        "south": 47.694865,
        "west": 14.2994695,
        "north": 48.02541825,
        "east": 15.253173
      },
      "poiCount": 4,
      "leafCount": 4,
      "averagePosition": [
        14.7734491,
        47.991507150000004
      ],
      "data": [
        {
          "type": "Feature",
          "properties": {
            "id": "3770969876",
            "osm_type": "node",
            "lat": 48.0237111,
            "lon": 14.7896682,
            "name": "Graben",
            "place": "suburb"
          },
          "geometry": {
            "type": "Point",
            "coordinates": [
              14.7896682,
              48.0237111
            ]
          }
        },
        {
          "type": "Feature",
          "properties": {
            "id": "3770969877",
            "osm_type": "node",
            "lat": 48.0221795,
            "lon": 14.7874272,
            "name": "Ödelberg",
            "place": "suburb"
          },
          "geometry": {
            "type": "Point",
            "coordinates": [
              14.7874272,
              48.0221795
            ]
          }
        },
        {
          "type": "Feature",
          "properties": {
            "id": "11557108935",
            "osm_type": "node",
            "lat": 47.8951757,
            "lon": 14.7221678,
            "name": "Markt",
            "place": "suburb"
          },
          "geometry": {
            "type": "Point",
            "coordinates": [
              14.7221678,
              47.8951757
            ]
          }
        },
        {
          "type": "Feature",
          "properties": {
            "id": "11560270911",
            "osm_type": "node",
            "lat": 48.0249623,
            "lon": 14.7945332,
            "name": "Südhang",
            "place": "suburb"
          },
          "geometry": {
            "type": "Point",
            "coordinates": [
              14.7945332,
              48.0249623
            ]
          }
        }
      ],
      "children": []
    },
    {
      "bbox": {
        "south": 48.02541825,
        "west": 13.345766,
        "north": 48.355971499999995,
        "east": 14.2994695
      },
      "poiCount": 19,
      "leafCount": 19,
      "averagePosition": [
        14.154677584210527,
        48.249490673684214
      ],
      "data": [
        {
          "type": "Feature",
          "properties": {
            "id": "240040867",
            "osm_type": "node",
            "lat": 48.2470169,
            "lon": 13.7620111,
            "name": "Gries",
            "place": "suburb"
          },
          "geometry": {
            "type": "Point",
            "coordinates": [
              13.7620111,
              48.2470169
            ]
          }
        },
        {
          "type": "Feature",
          "properties": {
            "id": "240055479",
            "osm_type": "node",
            "lat": 48.2478292,
            "lon": 13.7613527,
            "name": "Erb",
            "place": "suburb"
          },
          "geometry": {
            "type": "Point",
            "coordinates": [
              13.7613527,
              48.2478292
            ]
          }
        },
        {
          "type": "Feature",
          "properties": {
            "id": "3222332207",
            "osm_type": "node",
            "lat": 48.1697993,
            "lon": 14.0248288,
            "name": "Neustadt",
            "place": "suburb",
            "population": "12972",
            "wikidata": "Q18341465",
            "wikipedia": "de:Neustadt (Wels)"
          },
          "geometry": {
            "type": "Point",
            "coordinates": [
              14.0248288,
              48.1697993
            ]
          }
        },
        {
          "type": "Feature",
          "properties": {
            "id": "3287205518",
            "osm_type": "node",
            "lat": 48.164776,
            "lon": 14.0135207,
            "name": "Vogelweide",
            "place": "suburb",
            "population": "14619",
            "wikidata": "Q18632461",
            "wikipedia": "de:Vogelweide (Wels)"
          },
          "geometry": {
            "type": "Point",
            "coordinates": [
              14.0135207,
              48.164776
            ]
          }
        },
        {
          "type": "Feature",
          "properties": {
            "id": "3665755856",
            "osm_type": "node",
            "lat": 48.1519089,
            "lon": 14.0061715,
            "name": "Lichtenegg",
            "place": "suburb",
            "population": "13741",
            "wikidata": "Q18410768",
            "wikipedia": "de:Lichtenegg (Wels)"
          },
          "geometry": {
            "type": "Point",
            "coordinates": [
              14.0061715,
              48.1519089
            ]
          }
        },
        {
          "type": "Feature",
          "properties": {
            "id": "8287460182",
            "osm_type": "node",
            "lat": 48.1608578,
            "lon": 13.9967596,
            "name": "Gartenstadt",
            "place": "suburb"
          },
          "geometry": {
            "type": "Point",
            "coordinates": [
              13.9967596,
              48.1608578
            ]
          }
        },
        {
          "type": "Feature",
          "properties": {
            "id": "240025099",
            "osm_type": "node",
            "lat": 48.2811763,
            "lon": 14.2690463,
            "name": "Gaumberg",
            "place": "suburb"
          },
          "geometry": {
            "type": "Point",
            "coordinates": [
              14.2690463,
              48.2811763
            ]
          }
        },
        {
          "type": "Feature",
          "properties": {
            "id": "240037842",
            "osm_type": "node",
            "lat": 48.2583233,
            "lon": 14.2574996,
            "name": "Hart",
            "place": "suburb",
            "population": "28",
            "postal_code": "4060"
          },
          "geometry": {
            "type": "Point",
            "coordinates": [
              14.2574996,
              48.2583233
            ]
          }
        },
        {
          "type": "Feature",
          "properties": {
            "id": "255101372",
            "osm_type": "node",
            "lat": 48.2757319,
            "lon": 14.2808544,
            "name": "Keferfeld",
            "place": "suburb"
          },
          "geometry": {
            "type": "Point",
            "coordinates": [
              14.2808544,
              48.2757319
            ]
          }
        },
        {
          "type": "Feature",
          "properties": {
            "id": "255994263",
            "osm_type": "node",
            "lat": 48.2721284,
            "lon": 14.2906768,
            "name": "Bindermichl",
            "place": "suburb"
          },
          "geometry": {
            "type": "Point",
            "coordinates": [
              14.2906768,
              48.2721284
            ]
          }
        },
        {
          "type": "Feature",
          "properties": {
            "id": "843484858",
            "osm_type": "node",
            "lat": 48.2491139,
            "lon": 14.2784527,
            "name": "Wegscheid",
            "place": "suburb"
          },
          "geometry": {
            "type": "Point",
            "coordinates": [
              14.2784527,
              48.2491139
            ]
          }
        },
        {
          "type": "Feature",
          "properties": {
            "id": "843484884",
            "osm_type": "node",
            "lat": 48.2534649,
            "lon": 14.2931541,
            "name": "Neue Heimat",
            "place": "suburb"
          },
          "geometry": {
            "type": "Point",
            "coordinates": [
              14.2931541,
              48.2534649
            ]
          }
        },
        {
          "type": "Feature",
          "properties": {
            "id": "3665746555",
            "osm_type": "node",
            "lat": 48.1700395,
            "lon": 14.044755,
            "name": "Pernau",
            "place": "suburb"
          },
          "geometry": {
            "type": "Point",
            "coordinates": [
              14.044755,
              48.1700395
            ]
          }
        },
        {
          "type": "Feature",
          "properties": {
            "id": "3678863917",
            "osm_type": "node",
            "lat": 48.2828914,
            "lon": 14.2961441,
            "name": "Niedernhart",
            "place": "suburb"
          },
          "geometry": {
            "type": "Point",
            "coordinates": [
              14.2961441,
              48.2828914
            ]
          }
        },
        {
          "type": "Feature",
          "properties": {
            "id": "4920896749",
            "osm_type": "node",
            "lat": 48.3245282,
            "lon": 14.2570352,
            "name": "Pöstlingberg",
            "place": "suburb",
            "wikidata": "Q1275938"
          },
          "geometry": {
            "type": "Point",
            "coordinates": [
              14.2570352,
              48.3245282
            ]
          }
        },
        {
          "type": "Feature",
          "properties": {
            "id": "4920896751",
            "osm_type": "node",
            "lat": 48.300125,
            "lon": 14.2660474,
            "name": "Freinberg",
            "place": "suburb"
          },
          "geometry": {
            "type": "Point",
            "coordinates": [
              14.2660474,
              48.300125
            ]
          }
        },
        {
          "type": "Feature",
          "properties": {
            "id": "4920896752",
            "osm_type": "node",
            "lat": 48.3138122,
            "lon": 14.2804026,
            "name": "Urfahr",
            "place": "suburb"
          },
          "geometry": {
            "type": "Point",
            "coordinates": [
              14.2804026,
              48.3138122
            ]
          }
        },
        {
          "type": "Feature",
          "properties": {
            "id": "4920896753",
            "osm_type": "node",
            "lat": 48.2894467,
            "lon": 14.2780208,
            "name": "Froschberg",
            "place": "suburb"
          },
          "geometry": {
            "type": "Point",
            "coordinates": [
              14.2780208,
              48.2894467
            ]
          }
        },
        {
          "type": "Feature",
          "properties": {
            "id": "4920917154",
            "osm_type": "node",
            "lat": 48.327353,
            "lon": 14.2821407,
            "name": "Harbach",
            "place": "suburb"
          },
          "geometry": {
            "type": "Point",
            "coordinates": [
              14.2821407,
              48.327353
            ]
          }
        }
      ],
      "children": []
    },
    {
      "bbox": {
        "south": 48.02541825,
        "west": 14.2994695,
        "north": 48.355971499999995,
        "east": 15.253173
      },
      "poiCount": 41,
      "leafCount": 41,
      "averagePosition": [
        14.428657480487805,
        48.13276307073171
      ],
      "data": [
        {
          "type": "Feature",
          "properties": {
            "id": "25291650",
            "osm_type": "node",
            "lat": 48.2568297,
            "lon": 14.3597749,
            "addr:city": "Linz",
            "addr:country": "AT",
            "name": "Solar-City",
            "place": "suburb",
            "wikidata": "Q180198",
            "wikipedia": "de:SolarCity Linz"
          },
          "geometry": {
            "type": "Point",
            "coordinates": [
              14.3597749,
              48.2568297
            ]
          }
        },
        {
          "type": "Feature",
          "properties": {
            "id": "76056935",
            "osm_type": "node",
            "lat": 48.332092,
            "lon": 14.318742,
            "check_date": "2024-03-16",
            "name": "Dornach",
            "place": "suburb"
          },
          "geometry": {
            "type": "Point",
            "coordinates": [
              14.318742,
              48.332092
            ]
          }
        },
        {
          "type": "Feature",
          "properties": {
            "id": "76472238",
            "osm_type": "node",
            "lat": 48.3364748,
            "lon": 14.3004074,
            "name": "St. Magdalena",
            "place": "suburb"
          },
          "geometry": {
            "type": "Point",
            "coordinates": [
              14.3004074,
              48.3364748
            ]
          }
        },
        {
          "type": "Feature",
          "properties": {
            "id": "240050154",
            "osm_type": "node",
            "lat": 48.0333514,
            "lon": 14.417135,
            "name": "Neuschönau",
            "place": "suburb"
          },
          "geometry": {
            "type": "Point",
            "coordinates": [
              14.417135,
              48.0333514
            ]
          }
        },
        {
          "type": "Feature",
          "properties": {
            "id": "240054185",
            "osm_type": "node",
            "lat": 48.3447097,
            "lon": 14.5295554,
            "name": "Silberbach",
            "place": "suburb",
            "population": "344"
          },
          "geometry": {
            "type": "Point",
            "coordinates": [
              14.5295554,
              48.3447097
            ]
          }
        },
        {
          "type": "Feature",
          "properties": {
            "id": "255994357",
            "osm_type": "node",
            "lat": 48.2738074,
            "lon": 14.3032553,
            "name": "Spallerhof",
            "place": "suburb",
            "population": "12600"
          },
          "geometry": {
            "type": "Point",
            "coordinates": [
              14.3032553,
              48.2738074
            ]
          }
        },
        {
          "type": "Feature",
          "properties": {
            "id": "265605728",
            "osm_type": "node",
            "lat": 48.0479452,
            "lon": 14.420707,
            "name": "Tabor",
            "place": "suburb"
          },
          "geometry": {
            "type": "Point",
            "coordinates": [
              14.420707,
              48.0479452
            ]
          }
        },
        {
          "type": "Feature",
          "properties": {
            "id": "265608801",
            "osm_type": "node",
            "lat": 48.0561952,
            "lon": 14.4409702,
            "created_by": "Potlatch 0.9a",
            "name": "Münichholz",
            "place": "suburb"
          },
          "geometry": {
            "type": "Point",
            "coordinates": [
              14.4409702,
              48.0561952
            ]
          }
        },
        {
          "type": "Feature",
          "properties": {
            "id": "265608960",
            "osm_type": "node",
            "lat": 48.0343809,
            "lon": 14.4258374,
            "alt_name": "Ennsleiten",
            "name": "Ennsleite",
            "place": "suburb"
          },
          "geometry": {
            "type": "Point",
            "coordinates": [
              14.4258374,
              48.0343809
            ]
          }
        },
        {
          "type": "Feature",
          "properties": {
            "id": "265609350",
            "osm_type": "node",
            "lat": 48.0409327,
            "lon": 14.4089553,
            "name": "Eisenfeld",
            "place": "suburb"
          },
          "geometry": {
            "type": "Point",
            "coordinates": [
              14.4089553,
              48.0409327
            ]
          }
        },
        {
          "type": "Feature",
          "properties": {
            "id": "266328046",
            "osm_type": "node",
            "lat": 48.0412823,
            "lon": 14.4423163,
            "created_by": "Potlatch 0.9c",
            "name": "Waldrandsiedlung",
            "place": "suburb"
          },
          "geometry": {
            "type": "Point",
            "coordinates": [
              14.4423163,
              48.0412823
            ]
          }
        },
        {
          "type": "Feature",
          "properties": {
            "id": "267981126",
            "osm_type": "node",
            "lat": 48.0731454,
            "lon": 14.4235026,
            "created_by": "Potlatch 0.9c",
            "name": "Dornach",
            "place": "suburb"
          },
          "geometry": {
            "type": "Point",
            "coordinates": [
              14.4235026,
              48.0731454
            ]
          }
        },
        {
          "type": "Feature",
          "properties": {
            "id": "270306739",
            "osm_type": "node",
            "lat": 48.0514964,
            "lon": 14.4196197,
            "created_by": "Potlatch 0.9c",
            "name": "Taschelried",
            "place": "suburb"
          },
          "geometry": {
            "type": "Point",
            "coordinates": [
              14.4196197,
              48.0514964
            ]
          }
        },
        {
          "type": "Feature",
          "properties": {
            "id": "270306800",
            "osm_type": "node",
            "lat": 48.0479792,
            "lon": 14.4310094,
            "created_by": "Potlatch 0.9c",
            "name": "Ort",
            "place": "suburb"
          },
          "geometry": {
            "type": "Point",
            "coordinates": [
              14.4310094,
              48.0479792
            ]
          }
        },
        {
          "type": "Feature",
          "properties": {
            "id": "270306846",
            "osm_type": "node",
            "lat": 48.0451209,
            "lon": 14.4166812,
            "name": "Steyrdorf",
            "place": "suburb"
          },
          "geometry": {
            "type": "Point",
            "coordinates": [
              14.4166812,
              48.0451209
            ]
          }
        },
        {
          "type": "Feature",
          "properties": {
            "id": "270485778",
            "osm_type": "node",
            "lat": 48.0452346,
            "lon": 14.4411538,
            "name": "Fischhub",
            "place": "suburb"
          },
          "geometry": {
            "type": "Point",
            "coordinates": [
              14.4411538,
              48.0452346
            ]
          }
        },
        {
          "type": "Feature",
          "properties": {
            "id": "270485780",
            "osm_type": "node",
            "lat": 48.0407487,
            "lon": 14.4244491,
            "name": "Ennsdorf",
            "place": "suburb"
          },
          "geometry": {
            "type": "Point",
            "coordinates": [
              14.4244491,
              48.0407487
            ]
          }
        },
        {
          "type": "Feature",
          "properties": {
            "id": "270485781",
            "osm_type": "node",
            "lat": 48.0318409,
            "lon": 14.408193,
            "name": "Reichenschwall",
            "place": "suburb"
          },
          "geometry": {
            "type": "Point",
            "coordinates": [
              14.408193,
              48.0318409
            ]
          }
        },
        {
          "type": "Feature",
          "properties": {
            "id": "270485783",
            "osm_type": "node",
            "lat": 48.0283377,
            "lon": 14.4114186,
            "name": "Pyrach",
            "place": "suburb"
          },
          "geometry": {
            "type": "Point",
            "coordinates": [
              14.4114186,
              48.0283377
            ]
          }
        },
        {
          "type": "Feature",
          "properties": {
            "id": "270485785",
            "osm_type": "node",
            "lat": 48.0376299,
            "lon": 14.4020836,
            "created_by": "Potlatch 0.9a",
            "name": "Christkindlsiedlung",
            "place": "suburb"
          },
          "geometry": {
            "type": "Point",
            "coordinates": [
              14.4020836,
              48.0376299
            ]
          }
        },
        {
          "type": "Feature",
          "properties": {
            "id": "492122321",
            "osm_type": "node",
            "lat": 48.0609864,
            "lon": 14.423674,
            "name": "Resthof",
            "place": "suburb"
          },
          "geometry": {
            "type": "Point",
            "coordinates": [
              14.423674,
              48.0609864
            ]
          }
        },
        {
          "type": "Feature",
          "properties": {
            "id": "843484923",
            "osm_type": "node",
            "lat": 48.2705825,
            "lon": 14.3106384,
            "name": "Neue Welt",
            "place": "suburb"
          },
          "geometry": {
            "type": "Point",
            "coordinates": [
              14.3106384,
              48.2705825
            ]
          }
        },
        {
          "type": "Feature",
          "properties": {
            "id": "843484950",
            "osm_type": "node",
            "lat": 48.2549271,
            "lon": 14.310982,
            "name": "Kleinmünchen",
            "place": "suburb"
          },
          "geometry": {
            "type": "Point",
            "coordinates": [
              14.310982,
              48.2549271
            ]
          }
        },
        {
          "type": "Feature",
          "properties": {
            "id": "1348722434",
            "osm_type": "node",
            "lat": 48.2449681,
            "lon": 14.3300104,
            "name": "Ebelsberg",
            "place": "suburb"
          },
          "geometry": {
            "type": "Point",
            "coordinates": [
              14.3300104,
              48.2449681
            ]
          }
        },
        {
          "type": "Feature",
          "properties": {
            "id": "1459277904",
            "osm_type": "node",
            "lat": 48.2479955,
            "lon": 14.307851,
            "name": "Auwiesen",
            "place": "suburb"
          },
          "geometry": {
            "type": "Point",
            "coordinates": [
              14.307851,
              48.2479955
            ]
          }
        },
        {
          "type": "Feature",
          "properties": {
            "id": "1620867063",
            "osm_type": "node",
            "lat": 48.0734257,
            "lon": 14.4297849,
            "name": "Stadtgut Steyr",
            "place": "suburb"
          },
          "geometry": {
            "type": "Point",
            "coordinates": [
              14.4297849,
              48.0734257
            ]
          }
        },
        {
          "type": "Feature",
          "properties": {
            "id": "1679742420",
            "osm_type": "node",
            "lat": 48.251885,
            "lon": 14.3820384,
            "name": "Südpark Linz",
            "place": "suburb"
          },
          "geometry": {
            "type": "Point",
            "coordinates": [
              14.3820384,
              48.251885
            ]
          }
        },
        {
          "type": "Feature",
          "properties": {
            "id": "2435854448",
            "osm_type": "node",
            "lat": 48.0339128,
            "lon": 14.4003944,
            "addr:city": "Steyr",
            "addr:housenumber": "109",
            "addr:postcode": "4400",
            "addr:street": "Schlühslmayrstraße",
            "name": "Schlühslmayrsiedlung",
            "place": "suburb"
          },
          "geometry": {
            "type": "Point",
            "coordinates": [
              14.4003944,
              48.0339128
            ]
          }
        },
        {
          "type": "Feature",
          "properties": {
            "id": "2581250826",
            "osm_type": "node",
            "lat": 48.0687171,
            "lon": 14.4155839,
            "name": "Gleink",
            "place": "suburb",
            "wikidata": "Q131460866",
            "wikimedia_commons": "Category:Steyr-Gleink"
          },
          "geometry": {
            "type": "Point",
            "coordinates": [
              14.4155839,
              48.0687171
            ]
          }
        },
        {
          "type": "Feature",
          "properties": {
            "id": "3131753234",
            "osm_type": "node",
            "lat": 48.0388913,
            "lon": 14.4161517,
            "name": "Innere Stadt",
            "place": "suburb"
          },
          "geometry": {
            "type": "Point",
            "coordinates": [
              14.4161517,
              48.0388913
            ]
          }
        },
        {
          "type": "Feature",
          "properties": {
            "id": "3131753235",
            "osm_type": "node",
            "lat": 48.042941,
            "lon": 14.412614,
            "name": "Wehrgraben",
            "place": "suburb"
          },
          "geometry": {
            "type": "Point",
            "coordinates": [
              14.412614,
              48.042941
            ]
          }
        },
        {
          "type": "Feature",
          "properties": {
            "id": "4790130852",
            "osm_type": "node",
            "lat": 48.2237815,
            "lon": 14.502269,
            "landuse": "commercial",
            "name": "Wirtschaftspark Ennshafen-Ennsdorf",
            "place": "suburb"
          },
          "geometry": {
            "type": "Point",
            "coordinates": [
              14.502269,
              48.2237815
            ]
          }
        },
        {
          "type": "Feature",
          "properties": {
            "id": "4920896755",
            "osm_type": "node",
            "lat": 48.3052635,
            "lon": 14.3241548,
            "name": "Industriegelände",
            "place": "suburb"
          },
          "geometry": {
            "type": "Point",
            "coordinates": [
              14.3241548,
              48.3052635
            ]
          }
        },
        {
          "type": "Feature",
          "properties": {
            "id": "4920896756",
            "osm_type": "node",
            "lat": 48.2425674,
            "lon": 14.3723487,
            "name": "Pichling",
            "place": "suburb"
          },
          "geometry": {
            "type": "Point",
            "coordinates": [
              14.3723487,
              48.2425674
            ]
          }
        },
        {
          "type": "Feature",
          "properties": {
            "id": "4920896757",
            "osm_type": "node",
            "lat": 48.2496549,
            "lon": 14.368143,
            "name": "Traundorf",
            "place": "suburb"
          },
          "geometry": {
            "type": "Point",
            "coordinates": [
              14.368143,
              48.2496549
            ]
          }
        },
        {
          "type": "Feature",
          "properties": {
            "id": "5891117154",
            "osm_type": "node",
            "lat": 48.0449155,
            "lon": 14.4034404,
            "name": "Aichet",
            "place": "suburb"
          },
          "geometry": {
            "type": "Point",
            "coordinates": [
              14.4034404,
              48.0449155
            ]
          }
        },
        {
          "type": "Feature",
          "properties": {
            "id": "5891117155",
            "osm_type": "node",
            "lat": 48.0449737,
            "lon": 14.385259,
            "name": "Gründbergsiedlung",
            "place": "suburb"
          },
          "geometry": {
            "type": "Point",
            "coordinates": [
              14.385259,
              48.0449737
            ]
          }
        },
        {
          "type": "Feature",
          "properties": {
            "id": "5948736247",
            "osm_type": "node",
            "lat": 48.2892683,
            "lon": 14.3318293,
            "name": "Chemiepark Linz",
            "place": "suburb"
          },
          "geometry": {
            "type": "Point",
            "coordinates": [
              14.3318293,
              48.2892683
            ]
          }
        },
        {
          "type": "Feature",
          "properties": {
            "id": "3073128635",
            "osm_type": "node",
            "lat": 48.1127152,
            "lon": 14.896765,
            "name": "Greimpersdorf",
            "place": "suburb"
          },
          "geometry": {
            "type": "Point",
            "coordinates": [
              14.896765,
              48.1127152
            ]
          }
        },
        {
          "type": "Feature",
          "properties": {
            "id": "3073150210",
            "osm_type": "node",
            "lat": 48.1137744,
            "lon": 14.9140818,
            "name": "Luft",
            "place": "suburb"
          },
          "geometry": {
            "type": "Point",
            "coordinates": [
              14.9140818,
              48.1137744
            ]
          }
        },
        {
          "type": "Feature",
          "properties": {
            "id": "11560270910",
            "osm_type": "node",
            "lat": 48.027604,
            "lon": 14.7911754,
            "name": "Öko-Dorf",
            "place": "suburb"
          },
          "geometry": {
            "type": "Point",
            "coordinates": [
              14.7911754,
              48.027604
            ]
          }
        }
      ],
      "children": []
    }
  ]
}