{
  "bbox": {
    "south": 46.372652,
    "west": 13.345766,
    "north": 47.033758500000005,
    "east": 15.253173
  },
  "poiCount": 41,
  "leafCount": 41,
  "averagePosition": [
    14.233328695121951,
    46.672540848780486
  ],
  "data": [
    {
      "type": "Feature",
      "properties": {
        "id": "240036321",
        "osm_type": "node",
        "lat": 46.8196,
        "lon": 14.856746,
        "alt_name": "Sankt Johann",
        "name": "St. Johann",
        "place": "suburb",
        "population": "1005",
        "population:date": "2019-01-01",
        "postal_code": "9431",
        "ref:at:gkz": "2092342",
        "ref:at:okz": "03123"
      },
      "geometry": {
        "type": "Point",
        "coordinates": [
          14.856746,
          46.8196
        ]
      }
    },
    {
      "type": "Feature",
      "properties": {
        "id": "240048668",
        "osm_type": "node",
        "lat": 46.8096938,
        "lon": 14.8319139,
        "name": "Kleinedling",
        "place": "suburb",
        "population": "1828",
        "population:date": "2019-01-01"
      },
      "geometry": {
        "type": "Point",
        "coordinates": [
          14.8319139,
          46.8096938
        ]
      }
    },
    {
      "type": "Feature",
      "properties": {
        "id": "240049084",
        "osm_type": "node",
        "lat": 46.8055342,
        "lon": 14.8494604,
        "name": "Sankt Stefan",
        "place": "suburb",
        "population": "1733",
        "population:date": "2019-01-01"
      },
      "geometry": {
        "type": "Point",
        "coordinates": [
          14.8494604,
          46.8055342
        ]
      }
    },
    {
      "type": "Feature",
      "properties": {
        "id": "240054535",
        "osm_type": "node",
        "lat": 46.8485343,
        "lon": 14.8422637,
        "name": "Ritzing",
        "place": "suburb",
        "population": "564",
        "population:date": "2019-01-01"
      },
      "geometry": {
        "type": "Point",
        "coordinates": [
          14.8422637,
          46.8485343
        ]
      }
    },
    {
      "type": "Feature",
      "properties": {
        "id": "240070463",
        "osm_type": "node",
        "lat": 46.8412708,
        "lon": 14.8323179,
        "name": "Sankt Jakob",
        "place": "suburb",
        "population": "865",
        "service": "driveway"
      },
      "geometry": {
        "type": "Point",
        "coordinates": [
          14.8323179,
          46.8412708
        ]
      }
    },
    {
      "type": "Feature",
      "properties": {
        "id": "240085670",
        "osm_type": "node",
        "lat": 46.8307717,
        "lon": 14.8361111,
        "name": "Priel",
        "name:hu": "Priel",
        "place": "suburb",
        "population": "3030",
        "population:date": "2019-01-01"
      },
      "geometry": {
        "type": "Point",
        "coordinates": [
          14.8361111,
          46.8307717
        ]
      }
    },
    {
      "type": "Feature",
      "properties": {
        "id": "240099964",
        "osm_type": "node",
        "lat": 46.8243819,
        "lon": 14.8448997,
        "name": "Reding",
        "place": "suburb",
        "population": "2904",
        "population:date": "2019-01-01"
      },
      "geometry": {
        "type": "Point",
        "coordinates": [
          14.8448997,
          46.8243819
        ]
      }
    },
    {
      "type": "Feature",
      "properties": {
        "id": "1029854874",
        "osm_type": "node",
        "lat": 46.8336095,
        "lon": 14.8503641,
        "name": "Gries",
        "place": "suburb",
        "population": "1216",
        "population:date": "2019-01-01"
      },
      "geometry": {
        "type": "Point",
        "coordinates": [
          14.8503641,
          46.8336095
        ]
      }
    },
    {
      "type": "Feature",
      "properties": {
        "id": "5064314573",
        "osm_type": "node",
        "lat": 46.9499971,
        "lon": 14.8093439,
        "name": "Vorderklippitz",
        "place": "suburb"
      },
      "geometry": {
        "type": "Point",
        "coordinates": [
          14.8093439,
          46.9499971
        ]
      }
    },
    {
      "type": "Feature",
      "properties": {
        "id": "240030831",
        "osm_type": "node",
        "lat": 46.6092098,
        "lon": 13.8343673,
        "name": "Völkendorf",
        "place": "suburb",
        "population": "5545",
        "postal_code": "9500"
      },
      "geometry": {
        "type": "Point",
        "coordinates": [
          13.8343673,
          46.6092098
        ]
      }
    },
    {
      "type": "Feature",
      "properties": {
        "id": "240043741",
        "osm_type": "node",
        "lat": 46.5896992,
        "lon": 13.8237195,
        "name": "Warmbad-Judendorf",
        "name:fur": "Bagns di Vilac[",
        "name:sl": "Toplice pri Beljaku",
        "place": "suburb",
        "population": "1773",
        "wikidata": "Q2549363",
        "wikipedia": "de:Warmbad-Judendorf"
      },
      "geometry": {
        "type": "Point",
        "coordinates": [
          13.8237195,
          46.5896992
        ]
      }
    },
    {
      "type": "Feature",
      "properties": {
        "id": "240053419",
        "osm_type": "node",
        "lat": 46.626846,
        "lon": 13.8571001,
        "name": "St. Leonhard",
        "place": "suburb",
        "population": "1776",
        "wikidata": "Q1722087",
        "wikipedia": "de:St. Leonhard (Villach)"
      },
      "geometry": {
        "type": "Point",
        "coordinates": [
          13.8571001,
          46.626846
        ]
      }
    },
    {
      "type": "Feature",
      "properties": {
        "id": "240063343",
        "osm_type": "node",
        "lat": 46.5920558,
        "lon": 13.8449962,
        "name": "Auen",
        "place": "suburb",
        "population": "5575",
        "postal_code": "9500",
        "wikidata": "Q759099",
        "wikipedia": "de:Auen (Villach)"
      },
      "geometry": {
        "type": "Point",
        "coordinates": [
          13.8449962,
          46.5920558
        ]
      }
    },
    {
      "type": "Feature",
      "properties": {
        "id": "240068693",
        "osm_type": "node",
        "lat": 46.6195316,
        "lon": 13.8169744,
        "name": "Neufellach",
        "place": "suburb",
        "population": "839"
      },
      "geometry": {
        "type": "Point",
        "coordinates": [
          13.8169744,
          46.6195316
        ]
      }
    },
    {
      "type": "Feature",
      "properties": {
        "id": "240075247",
        "osm_type": "node",
        "lat": 46.6144405,
        "lon": 13.8452346,
        "admin_level": "9",
        "name": "Innere Stadt",
        "place": "suburb",
        "population": "7482",
        "postal_code": "9500"
      },
      "geometry": {
        "type": "Point",
        "coordinates": [
          13.8452346,
          46.6144405
        ]
      }
    },
    {
      "type": "Feature",
      "properties": {
        "id": "240081688",
        "osm_type": "node",
        "lat": 46.6173018,
        "lon": 13.8639775,
        "name": "Seebach-Wasenboden",
        "place": "suburb",
        "population": "4067"
      },
      "geometry": {
        "type": "Point",
        "coordinates": [
          13.8639775,
          46.6173018
        ]
      }
    },
    {
      "type": "Feature",
      "properties": {
        "id": "240084821",
        "osm_type": "node",
        "lat": 46.6321233,
        "lon": 13.815037,
        "name": "Obere Fellach",
        "place": "suburb",
        "population": "592"
      },
      "geometry": {
        "type": "Point",
        "coordinates": [
          13.815037,
          46.6321233
        ]
      }
    },
    {
      "type": "Feature",
      "properties": {
        "id": "240094362",
        "osm_type": "node",
        "lat": 46.6217767,
        "lon": 13.8469959,
        "name": "Lind",
        "place": "suburb",
        "population": "5386",
        "postal_code": "9500",
        "wikidata": "Q1825807",
        "wikipedia": "de:Lind (Villach)"
      },
      "geometry": {
        "type": "Point",
        "coordinates": [
          13.8469959,
          46.6217767
        ]
      }
    },
    {
      "type": "Feature",
      "properties": {
        "id": "240106879",
        "osm_type": "node",
        "lat": 46.6336371,
        "lon": 13.8872722,
        "name": "Landskron",
        "place": "suburb",
        "population": "3887",
        "wikidata": "Q1803871",
        "wikipedia": "de:Landskron (Villach)"
      },
      "geometry": {
        "type": "Point",
        "coordinates": [
          13.8872722,
          46.6336371
        ]
      }
    },
    {
      "type": "Feature",
      "properties": {
        "id": "240110225",
        "osm_type": "node",
        "lat": 46.6051644,
        "lon": 13.8526057,
        "name": "St. Agathen und Perau",
        "place": "suburb",
        "population": "3108"
      },
      "geometry": {
        "type": "Point",
        "coordinates": [
          13.8526057,
          46.6051644
        ]
      }
    },
    {
      "type": "Feature",
      "properties": {
        "id": "240122018",
        "osm_type": "node",
        "lat": 46.6182397,
        "lon": 13.8281677,
        "name": "St. Martin",
        "place": "suburb",
        "population": "2456"
      },
      "geometry": {
        "type": "Point",
        "coordinates": [
          13.8281677,
          46.6182397
        ]
      }
    },
    {
      "type": "Feature",
      "properties": {
        "id": "240123533",
        "osm_type": "node",
        "lat": 46.599612,
        "lon": 13.8797358,
        "name": "Maria Gail",
        "place": "suburb",
        "population": "383",
        "wikidata": "Q1895902",
        "wikipedia": "de:Maria Gail"
      },
      "geometry": {
        "type": "Point",
        "coordinates": [
          13.8797358,
          46.599612
        ]
      }
    },
    {
      "type": "Feature",
      "properties": {
        "id": "240125201",
        "osm_type": "node",
        "lat": 46.6167,
        "lon": 13.8833333,
        "name": "St. Magdalen",
        "place": "suburb",
        "population": "1190",
        "wikidata": "Q2320439",
        "wikipedia": "de:St. Magdalen (Villach)"
      },
      "geometry": {
        "type": "Point",
        "coordinates": [
          13.8833333,
          46.6167
        ]
      }
    },
    {
      "type": "Feature",
      "properties": {
        "id": "240125530",
        "osm_type": "node",
        "lat": 46.6259557,
        "lon": 13.8288231,
        "name": "Untere Fellach",
        "place": "suburb",
        "population": "3113"
      },
      "geometry": {
        "type": "Point",
        "coordinates": [
          13.8288231,
          46.6259557
        ]
      }
    },
    {
      "type": "Feature",
      "properties": {
        "id": "338913523",
        "osm_type": "node",
        "lat": 46.5875291,
        "lon": 13.9176564,
        "name": "Drobollach am Faaker See",
        "name:sl": "Drobolje",
        "place": "suburb",
        "population": "349",
        "wikidata": "Q42420686",
        "wikipedia": "de:Drobollach am Faaker See"
      },
      "geometry": {
        "type": "Point",
        "coordinates": [
          13.9176564,
          46.5875291
        ]
      }
    },
    {
      "type": "Feature",
      "properties": {
        "id": "240035279",
        "osm_type": "node",
        "lat": 46.6240717,
        "lon": 14.2797796,
        "name": "Sankt Martin",
        "place": "suburb",
        "wikidata": "Q1605267"
      },
      "geometry": {
        "type": "Point",
        "coordinates": [
          14.2797796,
          46.6240717
        ]
      }
    },
    {
      "type": "Feature",
      "properties": {
        "id": "240050016",
        "osm_type": "node",
        "lat": 46.6117578,
        "lon": 14.3108782,
        "name": "St. Ruprecht",
        "name:de": "St. Ruprecht",
        "name:sl": "Blače",
        "official_name": "Sankt Ruprecht",
        "place": "suburb"
      },
      "geometry": {
        "type": "Point",
        "coordinates": [
          14.3108782,
          46.6117578
        ]
      }
    },
    {
      "type": "Feature",
      "properties": {
        "id": "240055214",
        "osm_type": "node",
        "lat": 46.7184723,
        "lon": 14.0976988,
        "name": "Lindl",
        "place": "suburb",
        "population": "775"
      },
      "geometry": {
        "type": "Point",
        "coordinates": [
          14.0976988,
          46.7184723
        ]
      }
    },
    {
      "type": "Feature",
      "properties": {
        "id": "240086086",
        "osm_type": "node",
        "lat": 46.6249625,
        "lon": 14.2925853,
        "name": "Villacher Vorstadt",
        "place": "suburb",
        "ref": "8",
        "wikidata": "Q2526004"
      },
      "geometry": {
        "type": "Point",
        "coordinates": [
          14.2925853,
          46.6249625
        ]
      }
    },
    {
      "type": "Feature",
      "properties": {
        "id": "240100648",
        "osm_type": "node",
        "lat": 46.6340539,
        "lon": 14.29847,
        "name": "St. Veiter Vorstadt",
        "place": "suburb",
        "wikidata": "Q2323523"
      },
      "geometry": {
        "type": "Point",
        "coordinates": [
          14.29847,
          46.6340539
        ]
      }
    },
    {
      "type": "Feature",
      "properties": {
        "id": "240127908",
        "osm_type": "node",
        "lat": 46.6170255,
        "lon": 14.3085968,
        "name": "Viktringer Vorstadt",
        "place": "suburb",
        "wikidata": "Q1273300"
      },
      "geometry": {
        "type": "Point",
        "coordinates": [
          14.3085968,
          46.6170255
        ]
      }
    },
    {
      "type": "Feature",
      "properties": {
        "id": "250340428",
        "osm_type": "node",
        "lat": 46.5938054,
        "lon": 14.2697291,
        "check_date": "2024-03-27",
        "name": "Viktring",
        "name:de": "Viktring",
        "name:sl": "Vetrinj",
        "place": "suburb"
      },
      "geometry": {
        "type": "Point",
        "coordinates": [
          14.2697291,
          46.5938054
        ]
      }
    },
    {
      "type": "Feature",
      "properties": {
        "id": "301906117",
        "osm_type": "node",
        "lat": 46.6144651,
        "lon": 14.2842788,
        "name": "Waidmannsdorf",
        "name:de": "Waidmannsdorf",
        "name:sl": "Otoče",
        "place": "suburb"
      },
      "geometry": {
        "type": "Point",
        "coordinates": [
          14.2842788,
          46.6144651
        ]
      }
    },
    {
      "type": "Feature",
      "properties": {
        "id": "301907256",
        "osm_type": "node",
        "lat": 46.6313033,
        "lon": 14.342521,
        "name": "Welzenegg",
        "place": "suburb"
      },
      "geometry": {
        "type": "Point",
        "coordinates": [
          14.342521,
          46.6313033
        ]
      }
    },
    {
      "type": "Feature",
      "properties": {
        "id": "301907473",
        "osm_type": "node",
        "lat": 46.624976,
        "lon": 14.308406,
        "name": "Innere Stadt",
        "place": "suburb",
        "wikidata": "Q1323337"
      },
      "geometry": {
        "type": "Point",
        "coordinates": [
          14.308406,
          46.624976
        ]
      }
    },
    {
      "type": "Feature",
      "properties": {
        "id": "579342370",
        "osm_type": "node",
        "lat": 46.6202311,
        "lon": 14.3350043,
        "name": "St. Peter",
        "name:de": "St. Peter",
        "name:sl": "Šentpeter pri Celovcu",
        "place": "suburb"
      },
      "geometry": {
        "type": "Point",
        "coordinates": [
          14.3350043,
          46.6202311
        ]
      }
    },
    {
      "type": "Feature",
      "properties": {
        "id": "1830696447",
        "osm_type": "node",
        "lat": 46.6243904,
        "lon": 14.2821207,
        "name": "St. Martin",
        "name:de": "St. Martin",
        "name:sl": "Šmartin pri Celovcu",
        "place": "suburb"
      },
      "geometry": {
        "type": "Point",
        "coordinates": [
          14.2821207,
          46.6243904
        ]
      }
    },
    {
      "type": "Feature",
      "properties": {
        "id": "1831986959",
        "osm_type": "node",
        "lat": 46.624444,
        "lon": 14.3212928,
        "name": "Völkermarkter Vorstadt",
        "place": "suburb"
      },
      "geometry": {
        "type": "Point",
        "coordinates": [
          14.3212928,
          46.624444
        ]
      }
    },
    {
      "type": "Feature",
      "properties": {
        "id": "1831986970",
        "osm_type": "node",
        "lat": 46.6393743,
        "lon": 14.3147333,
        "name": "Annabichl",
        "name:de": "Annabichl",
        "name:sl": "Anapigelj",
        "place": "suburb"
      },
      "geometry": {
        "type": "Point",
        "coordinates": [
          14.3147333,
          46.6393743
        ]
      }
    },
    {
      "type": "Feature",
      "properties": {
        "id": "1831986979",
        "osm_type": "node",
        "lat": 46.6669647,
        "lon": 14.2573863,
        "name": "Wölfnitz",
        "name:de": "Wölfnitz",
        "name:sl": "Golovica pri Celovcu",
        "place": "suburb"
      },
      "geometry": {
        "type": "Point",
        "coordinates": [
          14.2573863,
          46.6669647
        ]
      }
    },
    {
      "type": "Feature",
      "properties": {
        "id": "4397286271",
        "osm_type": "node",
        "lat": 46.7306608,
        "lon": 14.0835781,
        "name": "Waiern",
        "place": "suburb",
        "population": "647"
      },
      "geometry": {
        "type": "Point",
        "coordinates": [
          14.0835781,
          46.7306608
        ]
      }
    }
  ],
  "children": []
}