{
  "bbox": {
    "south": 47.033758500000005,
    "west": 11.438358999999998,
    "north": 47.694865,
    "east": 13.345766
  },
  "poiCount": 19,
  "leafCount": 19,
  "averagePosition": [
    12.5996666,
    47.48288047894737
  ],
  "data": [
    {
      "type": "Feature",
      "properties": {
        "id": "1585587486",
        "osm_type": "node",
        "lat": 47.2735661,
        "lon": 11.441018,
        "name": "Olympisches Dorf",
        "note": "\"Statistische Stadtteile\" from https://de.wikipedia.org/wiki/Vorlage:Navigationsleiste_Gemeindegliederung_von_Innsbruck are considered place=suburb",
        "place": "suburb",
        "wikidata": "Q2022842",
        "wikipedia": "de:Olympisches Dorf (Innsbruck)"
      },
      "geometry": {
        "type": "Point",
        "coordinates": [
          11.441018,
          47.2735661
        ]
      }
    },
    {
      "type": "Feature",
      "properties": {
        "id": "3086088303",
        "osm_type": "node",
        "lat": 47.276365,
        "lon": 11.4496393,
        "name": "Neu-Rum",
        "place": "suburb",
        "wikidata": "Q18026333",
        "wikipedia": "de:Neu-Rum"
      },
      "geometry": {
        "type": "Point",
        "coordinates": [
          11.4496393,
          47.276365
        ]
      }
    },
    {
      "type": "Feature",
      "properties": {
        "id": "240063476",
        "osm_type": "node",
        "lat": 47.2741851,
        "lon": 12.483848,
        "name": "Klausen",
        "place": "suburb",
        "population": "313"
      },
      "geometry": {
        "type": "Point",
        "coordinates": [
          12.483848,
          47.2741851
        ]
      }
    },
    {
      "type": "Feature",
      "properties": {
        "id": "240093053",
        "osm_type": "node",
        "lat": 47.3266311,
        "lon": 12.7739492,
        "name": "Schmitten",
        "openGeoDB:auto_update": "population,place,name,is_in",
        "openGeoDB:community_identification_number": "5062803",
        "openGeoDB:layer": "7",
        "openGeoDB:loc_id": "74999",
        "openGeoDB:location": "locality",
        "openGeoDB:name": "Schmitten",
        "openGeoDB:population": "612",
        "openGeoDB:postal_codes": "5700",
        "openGeoDB:sort_name": "SCHMITTEN",
        "openGeoDB:type": "Ort",
        "openGeoDB:version": "0.2.6.11 / 2007-12-04 / http://fa-technik.adfc.de/code/opengeodb/dump/",
        "place": "suburb",
        "population": "612"
      },
      "geometry": {
        "type": "Point",
        "coordinates": [
          12.7739492,
          47.3266311
        ]
      }
    },
    {
      "type": "Feature",
      "properties": {
        "id": "932621635",
        "osm_type": "node",
        "lat": 47.2964287,
        "lon": 12.7794026,
        "name": "Bruckberg",
        "place": "suburb"
      },
      "geometry": {
        "type": "Point",
        "coordinates": [
          12.7794026,
          47.2964287
        ]
      }
    },
    {
      "type": "Feature",
      "properties": {
        "id": "2513221315",
        "osm_type": "node",
        "lat": 47.3291496,
        "lon": 12.8169948,
        "name": "Thumersbach",
        "place": "suburb",
        "wikidata": "Q185936",
        "wikipedia": "de:Thumersbach"
      },
      "geometry": {
        "type": "Point",
        "coordinates": [
          12.8169948,
          47.3291496
        ]
      }
    },
    {
      "type": "Feature",
      "properties": {
        "id": "2513221322",
        "osm_type": "node",
        "lat": 47.3400649,
        "lon": 12.808052,
        "alt_name": "Zell am See-Nord",
        "name": "Prielau",
        "place": "suburb"
      },
      "geometry": {
        "type": "Point",
        "coordinates": [
          12.808052,
          47.3400649
        ]
      }
    },
    {
      "type": "Feature",
      "properties": {
        "id": "2513221323",
        "osm_type": "node",
        "lat": 47.3032965,
        "lon": 12.792694,
        "alt_name": "Zell am See-Süd",
        "name": "Schüttdorf",
        "place": "suburb",
        "population": "7328",
        "wikidata": "Q187547",
        "wikipedia": "de:Zell am See-Süd"
      },
      "geometry": {
        "type": "Point",
        "coordinates": [
          12.792694,
          47.3032965
        ]
      }
    },
    {
      "type": "Feature",
      "properties": {
        "id": "7492596949",
        "osm_type": "node",
        "lat": 47.3239488,
        "lon": 12.7966454,
        "name": "Innenstadt",
        "place": "suburb"
      },
      "geometry": {
        "type": "Point",
        "coordinates": [
          12.7966454,
          47.3239488
        ]
      }
    },
    {
      "type": "Feature",
      "properties": {
        "id": "55484261",
        "osm_type": "node",
        "lat": 47.5714894,
        "lon": 12.1534738,
        "name": "Endach",
        "place": "suburb",
        "population": "1705",
        "wikidata": "Q1340229",
        "wikipedia": "de:Endach"
      },
      "geometry": {
        "type": "Point",
        "coordinates": [
          12.1534738,
          47.5714894
        ]
      }
    },
    {
      "type": "Feature",
      "properties": {
        "id": "55484269",
        "osm_type": "node",
        "lat": 47.5840222,
        "lon": 12.1603952,
        "name": "Zell",
        "place": "suburb",
        "population": "2645"
      },
      "geometry": {
        "type": "Point",
        "coordinates": [
          12.1603952,
          47.5840222
        ]
      }
    },
    {
      "type": "Feature",
      "properties": {
        "id": "55484275",
        "osm_type": "node",
        "lat": 47.5924994,
        "lon": 12.1804605,
        "name": "Sparchen",
        "place": "suburb"
      },
      "geometry": {
        "type": "Point",
        "coordinates": [
          12.1804605,
          47.5924994
        ]
      }
    },
    {
      "type": "Feature",
      "properties": {
        "id": "240090642",
        "osm_type": "node",
        "lat": 47.5752343,
        "lon": 12.1659048,
        "name": "Weissach",
        "openGeoDB:auto_update": "population,place,name,is_in",
        "openGeoDB:community_identification_number": "7051308",
        "openGeoDB:is_in": "Kufstein,Kufstein,Tirol,Österreich,Europe",
        "openGeoDB:is_in_loc_id": "77727",
        "openGeoDB:layer": "7",
        "openGeoDB:loc_id": "77734",
        "openGeoDB:location": "locality",
        "openGeoDB:name": "Weißach",
        "openGeoDB:population": "1071",
        "openGeoDB:postal_codes": "6330",
        "openGeoDB:sort_name": "WEISSACH",
        "openGeoDB:type": "Ort",
        "openGeoDB:version": "0.2.6.11 / 2007-12-04 / http://fa-technik.adfc.de/code/opengeodb/dump/",
        "place": "suburb",
        "population": "1071"
      },
      "geometry": {
        "type": "Point",
        "coordinates": [
          12.1659048,
          47.5752343
        ]
      }
    },
    {
      "type": "Feature",
      "properties": {
        "id": "240063046",
        "osm_type": "node",
        "lat": 47.6829322,
        "lon": 13.0920693,
        "name": "Altstadt",
        "place": "suburb",
        "population": "18853"
      },
      "geometry": {
        "type": "Point",
        "coordinates": [
          13.0920693,
          47.6829322
        ]
      }
    },
    {
      "type": "Feature",
      "properties": {
        "id": "240100613",
        "osm_type": "node",
        "lat": 47.6936727,
        "lon": 13.0867371,
        "name": "Neualm",
        "place": "suburb",
        "population": "2842"
      },
      "geometry": {
        "type": "Point",
        "coordinates": [
          13.0867371,
          47.6936727
        ]
      }
    },
    {
      "type": "Feature",
      "properties": {
        "id": "240108267",
        "osm_type": "node",
        "lat": 47.6876646,
        "lon": 13.105155,
        "name": "Gries",
        "place": "suburb",
        "population": "773"
      },
      "geometry": {
        "type": "Point",
        "coordinates": [
          13.105155,
          47.6876646
        ]
      }
    },
    {
      "type": "Feature",
      "properties": {
        "id": "240121317",
        "osm_type": "node",
        "lat": 47.6678782,
        "lon": 13.1134323,
        "name": "Gamp",
        "place": "suburb",
        "population": "292"
      },
      "geometry": {
        "type": "Point",
        "coordinates": [
          13.1134323,
          47.6678782
        ]
      }
    },
    {
      "type": "Feature",
      "properties": {
        "id": "3740867009",
        "osm_type": "node",
        "lat": 47.6815302,
        "lon": 13.1150413,
        "name": "Burgfried",
        "place": "suburb",
        "population": "3167"
      },
      "geometry": {
        "type": "Point",
        "coordinates": [
          13.1150413,
          47.6815302
        ]
      }
    },
    {
      "type": "Feature",
      "properties": {
        "id": "13105517833",
        "osm_type": "node",
        "lat": 47.6941701,
        "lon": 13.0787528,
        "name": "Kaltenhausen",
        "place": "suburb"
      },
      "geometry": {
        "type": "Point",
        "coordinates": [
          13.0787528,
          47.6941701
        ]
      }
    }
  ],
  "children": []
}